{
  "key": "restaurants_Pizza_40.7573_-73.9859_any",
  "value": [
    {
      "provider": "yelp",
      "name": "Blue Hill",
      "cuisine": "Pizza",
      "rating": 4.7,
      "review_count": 890,
      "price_range": "$$$$",
      "address": "164 Madison Ave (near 72nd St), New York, NY 10001",
      "distance_miles": 1.8,
      "phone": "(212) 617-5579",
      "website": "https://www.yelp.com/biz/blue-hill",
      "hours": "Mon-Sun: 11:00 AM - 10:00 PM",
      "is_open_now": true,
      "coordinates": [
        40.74984274517195,
        -73.98922943379927
      ],
      "image_url": "https://via.placeholder.com/400x300?text=Blue+Hill",
      "categories": [
        "American",
        "Restaurant",
        "Dining"
      ],
      "last_updated": "2025-12-23T05:34:04.663731"
    },
    {
      "provider": "yelp",
      "name": "Gramercy Tavern",
      "cuisine": "Pizza",
      "rating": 4.6,
      "review_count": 2100,
      "price_range": "$$$$",
      "address": "821 Park Ave (near 42nd St), New York, NY 10001",
      "distance_miles": 1.0,
      "phone": "(212) 945-7411",
      "website": "https://www.yelp.com/biz/gramercy-tavern",
      "hours": "Mon-Sun: 11:00 AM - 10:00 PM",
      "is_open_now": true,
      "coordinates": [
        40.766715039049465,
        -73.97668728517667
      ],
      "image_url": "https://via.placeholder.com/400x300?text=Gramercy+Tavern",
      "categories": [
        "American",
        "Restaurant",
        "Dining"
      ],
      "last_updated": "2025-12-23T05:34:04.663539"
    },
    {
      "provider": "google_places",
      "name": "Peter Luger",
      "cuisine": "Pizza",
      "rating": 4.6,
      "review_count": 4200,
      "price_range": "$$$$",
      "address": "412 7th Ave, East Village, NY 10012",
      "distance_miles": 1.9,
      "phone": "(646) 979-2868",
      "website": "https://www.google.com/maps/search/Peter+Luger",
      "hours": "Hours vary",
      "is_open_now": true,
      "coordinates": [
        40.76120244418322,
        -73.9847491518512
      ],
      "image_url": "https://via.placeholder.com/400x300?text=Peter+Luger",
      "categories": [
        "American",
        "Restaurant"
      ],
      "last_updated": "2025-12-23T05:34:04.664879"
    },
    {
      "provider": "google_places",
      "name": "Union Square Caf\u00e9",
      "cuisine": "Pizza",
      "rating": 4.5,
      "review_count": 2100,
      "price_range": "$$$",
      "address": "487 7th Ave, Chelsea, NY 10012",
      "distance_miles": 1.3,
      "phone": "(646) 418-5621",
      "website": "https://www.google.com/maps/search/Union+Square+Caf\u00e9",
      "hours": "Hours vary",
      "is_open_now": true,
      "coordinates": [
        40.74951239221386,
        -73.99066440903195
      ],
      "image_url": "https://via.placeholder.com/400x300?text=Union+Square+Caf\u00e9",
      "categories": [
        "American",
        "Restaurant"
      ],
      "last_updated": "2025-12-23T05:34:04.664311"
    },
    {
      "provider": "google_places",
      "name": "Minetta Tavern",
      "cuisine": "Pizza",
      "rating": 4.4,
      "review_count": 1890,
      "price_range": "$$$",
      "address": "37 Bleecker St, Chelsea, NY 10012",
      "distance_miles": 0.8,
      "phone": "(917) 487-6518",
      "website": "https://www.google.com/maps/search/Minetta+Tavern",
      "hours": "Hours vary",
      "is_open_now": true,
      "coordinates": [
        40.753034950752344,
        -73.98813056293832
      ],
      "image_url": "https://via.placeholder.com/400x300?text=Minetta+Tavern",
      "categories": [
        "American",
        "Restaurant"
      ],
      "last_updated": "2025-12-23T05:34:04.664694"
    },
    {
      "provider": "yelp",
      "name": "Shake Shack",
      "cuisine": "Pizza",
      "rating": 4.3,
      "review_count": 8900,
      "price_range": "$",
      "address": "780 Park Ave (near 23rd St), New York, NY 10001",
      "distance_miles": 0.7,
      "phone": "(646) 941-1844",
      "website": "https://www.yelp.com/biz/shake-shack",
      "hours": "Mon-Sun: 11:00 AM - 10:00 PM",
      "is_open_now": true,
      "coordinates": [
        40.75713186087793,
        -73.98119319930679
      ],
      "image_url": "https://via.placeholder.com/400x300?text=Shake+Shack",
      "categories": [
        "American",
        "Restaurant",
        "Dining"
      ],
      "last_updated": "2025-12-23T05:34:04.663917"
    },
    {
      "provider": "google_places",
      "name": "The Spotted Pig",
      "cuisine": "Pizza",
      "rating": 4.3,
      "review_count": 3400,
      "price_range": "$$",
      "address": "225 6th Ave, Tribeca, NY 10012",
      "distance_miles": 1.8,
      "phone": "(212) 536-5044",
      "website": "https://www.google.com/maps/search/The+Spotted+Pig",
      "hours": "Hours vary",
      "is_open_now": true,
      "coordinates": [
        40.76639432337926,
        -73.98450902399419
      ],
      "image_url": "https://via.placeholder.com/400x300?text=The+Spotted+Pig",
      "categories": [
        "American",
        "Restaurant"
      ],
      "last_updated": "2025-12-23T05:34:04.664508"
    },
    {
      "provider": "yelp",
      "name": "The Smith",
      "cuisine": "Pizza",
      "rating": 4.2,
      "review_count": 4200,
      "price_range": "$$",
      "address": "223 Broadway (near 50th St), New York, NY 10001",
      "distance_miles": 1.3,
      "phone": "(917) 869-1113",
      "website": "https://www.yelp.com/biz/the-smith",
      "hours": "Mon-Sun: 11:00 AM - 10:00 PM",
      "is_open_now": true,
      "coordinates": [
        40.76479039130069,
        -73.98204230830376
      ],
      "image_url": "https://via.placeholder.com/400x300?text=The+Smith",
      "categories": [
        "American",
        "Restaurant",
        "Dining"
      ],
      "last_updated": "2025-12-23T05:34:04.663281"
    },
    {
      "provider": "yelp",
      "name": "Five Guys",
      "cuisine": "Pizza",
      "rating": 4.1,
      "review_count": 3400,
      "price_range": "$",
      "address": "809 5th Ave (near 34th St), New York, NY 10001",
      "distance_miles": 0.3,
      "phone": "(917) 947-4728",
      "website": "https://www.yelp.com/biz/five-guys",
      "hours": "Mon-Sun: 11:00 AM - 10:00 PM",
      "is_open_now": true,
      "coordinates": [
        40.76209486846234,
        -73.99159050950362
      ],
      "image_url": "https://via.placeholder.com/400x300?text=Five+Guys",
      "categories": [
        "American",
        "Restaurant",
        "Dining"
      ],
      "last_updated": "2025-12-23T05:34:04.664109"
    }
  ],
  "created_at": 1766486044.66508,
  "ttl": 3600
}