{
  "key": "restaurants_Pizza_40.7127_-74.0060_any",
  "value": [
    {
      "provider": "yelp",
      "name": "Blue Hill",
      "cuisine": "Pizza",
      "rating": 4.7,
      "review_count": 890,
      "price_range": "$$$$",
      "address": "771 Broadway (near 14th St), New York, NY 10001",
      "distance_miles": 0.5,
      "phone": "(347) 926-4323",
      "website": "https://www.yelp.com/biz/blue-hill",
      "hours": "Mon-Sun: 11:00 AM - 10:00 PM",
      "is_open_now": true,
      "coordinates": [
        40.71092266694071,
        -74.01315245222052
      ],
      "image_url": "https://via.placeholder.com/400x300?text=Blue+Hill",
      "categories": [
        "American",
        "Restaurant",
        "Dining"
      ],
      "last_updated": "2025-12-23T07:54:56.164663"
    },
    {
      "provider": "yelp",
      "name": "Gramercy Tavern",
      "cuisine": "Pizza",
      "rating": 4.6,
      "review_count": 2100,
      "price_range": "$$$$",
      "address": "369 Madison Ave (near 23rd St), New York, NY 10001",
      "distance_miles": 2.9,
      "phone": "(917) 373-2459",
      "website": "https://www.yelp.com/biz/gramercy-tavern",
      "hours": "Mon-Sun: 11:00 AM - 10:00 PM",
      "is_open_now": false,
      "coordinates": [
        40.708625361491045,
        -74.00200528655164
      ],
      "image_url": "https://via.placeholder.com/400x300?text=Gramercy+Tavern",
      "categories": [
        "American",
        "Restaurant",
        "Dining"
      ],
      "last_updated": "2025-12-23T07:54:56.164642"
    },
    {
      "provider": "google_places",
      "name": "Peter Luger",
      "cuisine": "Pizza",
      "rating": 4.6,
      "review_count": 4200,
      "price_range": "$$$$",
      "address": "471 Prince St, Chelsea, NY 10012",
      "distance_miles": 2.3,
      "phone": "(917) 693-5280",
      "website": "https://www.google.com/maps/search/Peter+Luger",
      "hours": "Hours vary",
      "is_open_now": true,
      "coordinates": [
        40.704814090985785,
        -74.00046618612986
      ],
      "image_url": "https://via.placeholder.com/400x300?text=Peter+Luger",
      "categories": [
        "American",
        "Restaurant"
      ],
      "last_updated": "2025-12-23T07:54:56.164789"
    },
    {
      "provider": "google_places",
      "name": "Union Square Caf\u00e9",
      "cuisine": "Pizza",
      "rating": 4.5,
      "review_count": 2100,
      "price_range": "$$$",
      "address": "22 Houston St, West Village, NY 10012",
      "distance_miles": 1.3,
      "phone": "(646) 793-7175",
      "website": "https://www.google.com/maps/search/Union+Square+Caf\u00e9",
      "hours": "Hours vary",
      "is_open_now": false,
      "coordinates": [
        40.70431561672428,
        -74.00772824221269
      ],
      "image_url": "https://via.placeholder.com/400x300?text=Union+Square+Caf\u00e9",
      "categories": [
        "American",
        "Restaurant"
      ],
      "last_updated": "2025-12-23T07:54:56.164747"
    },
    {
      "provider": "google_places",
      "name": "Minetta Tavern",
      "cuisine": "Pizza",
      "rating": 4.4,
      "review_count": 1890,
      "price_range": "$$$",
      "address": "357 Spring St, East Village, NY 10012",
      "distance_miles": 1.1,
      "phone": "(646) 723-4416",
      "website": "https://www.google.com/maps/search/Minetta+Tavern",
      "hours": "Hours vary",
      "is_open_now": false,
      "coordinates": [
        40.72259971143581,
        -74.01347682461008
      ],
      "image_url": "https://via.placeholder.com/400x300?text=Minetta+Tavern",
      "categories": [
        "American",
        "Restaurant"
      ],
      "last_updated": "2025-12-23T07:54:56.164777"
    },
    {
      "provider": "yelp",
      "name": "Shake Shack",
      "cuisine": "Pizza",
      "rating": 4.3,
      "review_count": 8900,
      "price_range": "$",
      "address": "338 Madison Ave (near 59th St), New York, NY 10001",
      "distance_miles": 1.2,
      "phone": "(347) 711-7886",
      "website": "https://www.yelp.com/biz/shake-shack",
      "hours": "Mon-Sun: 11:00 AM - 10:00 PM",
      "is_open_now": true,
      "coordinates": [
        40.720208273936244,
        -74.00486586883233
      ],
      "image_url": "https://via.placeholder.com/400x300?text=Shake+Shack",
      "categories": [
        "American",
        "Restaurant",
        "Dining"
      ],
      "last_updated": "2025-12-23T07:54:56.164678"
    },
    {
      "provider": "google_places",
      "name": "The Spotted Pig",
      "cuisine": "Pizza",
      "rating": 4.3,
      "review_count": 3400,
      "price_range": "$$",
      "address": "176 Houston St, East Village, NY 10012",
      "distance_miles": 0.2,
      "phone": "(917) 543-4858",
      "website": "https://www.google.com/maps/search/The+Spotted+Pig",
      "hours": "Hours vary",
      "is_open_now": false,
      "coordinates": [
        40.710057676302,
        -74.01240815126256
      ],
      "image_url": "https://via.placeholder.com/400x300?text=The+Spotted+Pig",
      "categories": [
        "American",
        "Restaurant"
      ],
      "last_updated": "2025-12-23T07:54:56.164764"
    },
    {
      "provider": "yelp",
      "name": "The Smith",
      "cuisine": "Pizza",
      "rating": 4.2,
      "review_count": 4200,
      "price_range": "$$",
      "address": "705 Lexington Ave (near 50th St), New York, NY 10001",
      "distance_miles": 1.1,
      "phone": "(347) 519-2462",
      "website": "https://www.yelp.com/biz/the-smith",
      "hours": "Mon-Sun: 11:00 AM - 10:00 PM",
      "is_open_now": false,
      "coordinates": [
        40.70653268844924,
        -74.01188220989505
      ],
      "image_url": "https://via.placeholder.com/400x300?text=The+Smith",
      "categories": [
        "American",
        "Restaurant",
        "Dining"
      ],
      "last_updated": "2025-12-23T07:54:56.164583"
    },
    {
      "provider": "yelp",
      "name": "Five Guys",
      "cuisine": "Pizza",
      "rating": 4.1,
      "review_count": 3400,
      "price_range": "$",
      "address": "243 Amsterdam Ave (near 34th St), New York, NY 10001",
      "distance_miles": 2.0,
      "phone": "(347) 724-4252",
      "website": "https://www.yelp.com/biz/five-guys",
      "hours": "Mon-Sun: 11:00 AM - 10:00 PM",
      "is_open_now": true,
      "coordinates": [
        40.70394919033097,
        -74.01552246873706
      ],
      "image_url": "https://via.placeholder.com/400x300?text=Five+Guys",
      "categories": [
        "American",
        "Restaurant",
        "Dining"
      ],
      "last_updated": "2025-12-23T07:54:56.164693"
    }
  ],
  "created_at": 1766494496.164839,
  "ttl": 3600
}