{
  "key": "restaurants_Italian_40.7570_-73.9860_any",
  "value": [
    {
      "provider": "yelp",
      "name": "Lilia",
      "cuisine": "Italian",
      "rating": 4.6,
      "review_count": 890,
      "price_range": "$$$",
      "address": "704 Amsterdam Ave (near 23rd St), New York, NY 10001",
      "distance_miles": 2.9,
      "phone": "(917) 890-9368",
      "website": "https://www.yelp.com/biz/lilia",
      "hours": "Mon-Sun: 11:00 AM - 10:00 PM",
      "is_open_now": true,
      "coordinates": [
        40.75095414444011,
        -73.98816152549686
      ],
      "image_url": "https://via.placeholder.com/400x300?text=Lilia",
      "categories": [
        "Italian",
        "Restaurant",
        "Dining"
      ],
      "last_updated": "2025-12-13T21:34:15.094468"
    },
    {
      "provider": "google_places",
      "name": "Torrisi",
      "cuisine": "Italian",
      "rating": 4.6,
      "review_count": 450,
      "price_range": "$$$$",
      "address": "163 6th Ave, Greenwich Village, NY 10012",
      "distance_miles": 1.2,
      "phone": "(917) 349-1944",
      "website": "https://www.google.com/maps/search/Torrisi",
      "hours": "Hours vary",
      "is_open_now": false,
      "coordinates": [
        40.756185786172765,
        -73.99392020230428
      ],
      "image_url": "https://via.placeholder.com/400x300?text=Torrisi",
      "categories": [
        "Italian",
        "Restaurant"
      ],
      "last_updated": "2025-12-13T21:34:15.094704"
    },
    {
      "provider": "yelp",
      "name": "Carbone",
      "cuisine": "Italian",
      "rating": 4.5,
      "review_count": 1200,
      "price_range": "$$$$",
      "address": "516 Madison Ave (near 50th St), New York, NY 10001",
      "distance_miles": 1.8,
      "phone": "(212) 775-7916",
      "website": "https://www.yelp.com/biz/carbone",
      "hours": "Mon-Sun: 11:00 AM - 10:00 PM",
      "is_open_now": false,
      "coordinates": [
        40.76314979915206,
        -73.98992136467702
      ],
      "image_url": "https://via.placeholder.com/400x300?text=Carbone",
      "categories": [
        "Italian",
        "Restaurant",
        "Dining"
      ],
      "last_updated": "2025-12-13T21:34:15.094409"
    },
    {
      "provider": "yelp",
      "name": "Rubirosa",
      "cuisine": "Italian",
      "rating": 4.5,
      "review_count": 2100,
      "price_range": "$$",
      "address": "884 Madison Ave (near 72nd St), New York, NY 10001",
      "distance_miles": 0.5,
      "phone": "(646) 206-6552",
      "website": "https://www.yelp.com/biz/rubirosa",
      "hours": "Mon-Sun: 11:00 AM - 10:00 PM",
      "is_open_now": false,
      "coordinates": [
        40.75067373604831,
        -73.99157341384921
      ],
      "image_url": "https://via.placeholder.com/400x300?text=Rubirosa",
      "categories": [
        "Italian",
        "Restaurant",
        "Dining"
      ],
      "last_updated": "2025-12-13T21:34:15.094546"
    },
    {
      "provider": "google_places",
      "name": "Babbo",
      "cuisine": "Italian",
      "rating": 4.5,
      "review_count": 1100,
      "price_range": "$$$$",
      "address": "407 Broadway, Greenwich Village, NY 10012",
      "distance_miles": 0.9,
      "phone": "(212) 433-3034",
      "website": "https://www.google.com/maps/search/Babbo",
      "hours": "Hours vary",
      "is_open_now": false,
      "coordinates": [
        40.75451793971334,
        -73.98370029421659
      ],
      "image_url": "https://via.placeholder.com/400x300?text=Babbo",
      "categories": [
        "Italian",
        "Restaurant"
      ],
      "last_updated": "2025-12-13T21:34:15.094670"
    },
    {
      "provider": "yelp",
      "name": "Via Carota",
      "cuisine": "Italian",
      "rating": 4.4,
      "review_count": 1450,
      "price_range": "$$$",
      "address": "294 Lexington Ave (near 14th St), New York, NY 10001",
      "distance_miles": 0.6,
      "phone": "(212) 563-3251",
      "website": "https://www.yelp.com/biz/via-carota",
      "hours": "Mon-Sun: 11:00 AM - 10:00 PM",
      "is_open_now": true,
      "coordinates": [
        40.76510375808766,
        -73.97771857932887
      ],
      "image_url": "https://via.placeholder.com/400x300?text=Via+Carota",
      "categories": [
        "Italian",
        "Restaurant",
        "Dining"
      ],
      "last_updated": "2025-12-13T21:34:15.094504"
    },
    {
      "provider": "google_places",
      "name": "Il Buco",
      "cuisine": "Italian",
      "rating": 4.4,
      "review_count": 890,
      "price_range": "$$$",
      "address": "60 Spring St, Greenwich Village, NY 10012",
      "distance_miles": 1.5,
      "phone": "(646) 368-2621",
      "website": "https://www.google.com/maps/search/Il+Buco",
      "hours": "Hours vary",
      "is_open_now": false,
      "coordinates": [
        40.75415396122565,
        -73.9795777621594
      ],
      "image_url": "https://via.placeholder.com/400x300?text=Il+Buco",
      "categories": [
        "Italian",
        "Restaurant"
      ],
      "last_updated": "2025-12-13T21:34:15.094626"
    },
    {
      "provider": "google_places",
      "name": "Locanda Verde",
      "cuisine": "Italian",
      "rating": 4.4,
      "review_count": 1450,
      "price_range": "$$$",
      "address": "466 Prince St, East Village, NY 10012",
      "distance_miles": 1.2,
      "phone": "(917) 877-9588",
      "website": "https://www.google.com/maps/search/Locanda+Verde",
      "hours": "Hours vary",
      "is_open_now": true,
      "coordinates": [
        40.752290412888826,
        -73.99016922020013
      ],
      "image_url": "https://via.placeholder.com/400x300?text=Locanda+Verde",
      "categories": [
        "Italian",
        "Restaurant"
      ],
      "last_updated": "2025-12-13T21:34:15.094687"
    },
    {
      "provider": "yelp",
      "name": "L'Artusi",
      "cuisine": "Italian",
      "rating": 4.3,
      "review_count": 980,
      "price_range": "$$$",
      "address": "309 Amsterdam Ave (near 72nd St), New York, NY 10001",
      "distance_miles": 1.3,
      "phone": "(347) 308-5480",
      "website": "https://www.yelp.com/biz/lartusi",
      "hours": "Mon-Sun: 11:00 AM - 10:00 PM",
      "is_open_now": true,
      "coordinates": [
        40.75608028557879,
        -73.99383163335726
      ],
      "image_url": "https://via.placeholder.com/400x300?text=L'Artusi",
      "categories": [
        "Italian",
        "Restaurant",
        "Dining"
      ],
      "last_updated": "2025-12-13T21:34:15.094527"
    },
    {
      "provider": "google_places",
      "name": "Peasant",
      "cuisine": "Italian",
      "rating": 4.3,
      "review_count": 670,
      "price_range": "$$$",
      "address": "478 7th Ave, SoHo, NY 10012",
      "distance_miles": 0.5,
      "phone": "(917) 722-5044",
      "website": "https://www.google.com/maps/search/Peasant",
      "hours": "Hours vary",
      "is_open_now": true,
      "coordinates": [
        40.7493990767465,
        -73.98788149643501
      ],
      "image_url": "https://via.placeholder.com/400x300?text=Peasant",
      "categories": [
        "Italian",
        "Restaurant"
      ],
      "last_updated": "2025-12-13T21:34:15.094652"
    }
  ],
  "created_at": 1765679655.094761,
  "ttl": 3600
}